{
  "id": "bhutan",
  "festivals": [
    { "id": "paro-tsechu", "name": "Paro Tsechu", "dates": { "month": 3, "startDay": 20, "endDay": 24 }, "location": { "name": "Paro", "coords": { "lat": 27.43, "lng": 89.42 } }, "description": "Bhutan's most famous tsechu festival features masked dances performed by monks at the dzong, culminating in the Thongdrel's unveiling.", "importance": "primary", "externalLinks": [{ "label": "Wikipedia", "url": "https://en.wikipedia.org/wiki/Paro_Tsechu" }] },
    { "id": "thimphu-tsechu", "name": "Thimphu Tsechu", "dates": { "month": 9, "startDay": 22, "endDay": 25 }, "location": { "name": "Thimphu", "coords": { "lat": 27.47, "lng": 89.64 } }, "description": "Bhutan's capital hosts its annual tsechu with three days of sacred mask dances and cultural performances.", "importance": "primary", "externalLinks": [{ "label": "Wikipedia", "url": "https://en.wikipedia.org/wiki/Thimphu_Tshechu" }] }
  ],
  "destinations": [
    { "id": "paro-taktsang", "name": "Taktsang (Tiger's Nest)", "region": "Paro", "coords": { "lat": 27.49, "lng": 89.36 }, "tags": ["monastery", "cliffside", "trekking", "iconic"], "description": "Bhutan's most iconic site: a Buddhist monastery clinging to a granite cliff 900m above the Paro valley floor.", "travelTimeFromEntry": 0, "priority": 1, "bestMonths": [3, 4, 5, 9, 10, 11], "externalLinks": [{ "label": "Wikipedia", "url": "https://en.wikipedia.org/wiki/Paro_Taktsang" }] },
    { "id": "thimphu", "name": "Thimphu", "region": "Thimphu", "coords": { "lat": 27.47, "lng": 89.64 }, "tags": ["capital", "dzong", "archery", "culture"], "description": "The world's only capital with no traffic lights, Thimphu has a majestic dzong, traditional archery fields, and the Tashichho Dzong.", "travelTimeFromEntry": 1, "priority": 1, "bestMonths": [3, 4, 5, 9, 10, 11], "externalLinks": [{ "label": "Wikipedia", "url": "https://en.wikipedia.org/wiki/Thimphu" }] },
    { "id": "punakha", "name": "Punakha Dzong & Valley", "region": "Punakha", "coords": { "lat": 27.61, "lng": 89.87 }, "tags": ["dzong", "valley", "river-confluence", "scenic"], "description": "Bhutan's most beautiful dzong stands at the confluence of two rivers, surrounded by rice fields and jacaranda trees.", "travelTimeFromEntry": 2, "priority": 1, "bestMonths": [3, 4, 5, 9, 10, 11], "externalLinks": [{ "label": "Wikipedia", "url": "https://en.wikipedia.org/wiki/Punakha_Dzong" }] },
    { "id": "bumthang-valley", "name": "Bumthang Valley", "region": "Bumthang", "coords": { "lat": 27.55, "lng": 90.73 }, "tags": ["spiritual-heartland", "temples", "ancient", "trekking"], "description": "Bhutan's spiritual heartland has some of the oldest temples in the country, including the 7th-century Jambay Lhakhang.", "travelTimeFromEntry": 6, "priority": 1, "bestMonths": [3, 4, 5, 9, 10, 11], "externalLinks": [{ "label": "Wikipedia", "url": "https://en.wikipedia.org/wiki/Bumthang_District" }] },
    { "id": "haa-valley", "name": "Haa Valley", "region": "Haa", "coords": { "lat": 27.38, "lng": 89.28 }, "tags": ["remote", "pristine", "festivals", "nature"], "description": "One of Bhutan's least-visited valleys with pristine forests, traditional villages, and the high Chelela pass.", "travelTimeFromEntry": 2, "priority": 2, "bestMonths": [3, 4, 5, 9, 10], "externalLinks": [{ "label": "Wikipedia", "url": "https://en.wikipedia.org/wiki/Haa_District" }] },
    { "id": "jigme-dorji-np", "name": "Jigme Dorji National Park", "region": "Paro/Thimphu", "coords": { "lat": 27.65, "lng": 89.45 }, "tags": ["wildlife", "snow-leopard", "trekking", "pristine"], "description": "Bhutan's largest park shelters snow leopards, takins, and blue sheep in pristine Himalayan wilderness.", "travelTimeFromEntry": 2, "priority": 2, "bestMonths": [4, 5, 6, 9, 10], "externalLinks": [{ "label": "Wikipedia", "url": "https://en.wikipedia.org/wiki/Jigme_Dorji_National_Park" }] },
    { "id": "wangdue-phodrang", "name": "Wangdue Phodrang", "region": "Wangdue Phodrang", "coords": { "lat": 27.48, "lng": 89.9 }, "tags": ["dzong", "village", "culture", "history"], "description": "A historic town and dzong perched on a ridge above the Punakha valley, gateway to central Bhutan's remote areas.", "travelTimeFromEntry": 2, "priority": 2, "bestMonths": [3, 4, 5, 9, 10, 11], "externalLinks": [{ "label": "Wikipedia", "url": "https://en.wikipedia.org/wiki/Wangdue_Phodrang" }] },
    { "id": "druk-path-trek", "name": "Druk Path Trek", "region": "Paro-Thimphu", "coords": { "lat": 27.45, "lng": 89.53 }, "tags": ["trekking", "lakes", "forests", "classic"], "description": "The classic 5-day trek connects Paro to Thimphu through alpine lakes, bamboo forests, and stunning Himalayan views.", "travelTimeFromEntry": 1, "priority": 2, "bestMonths": [3, 4, 5, 9, 10, 11], "externalLinks": [{ "label": "Wikipedia", "url": "https://en.wikipedia.org/wiki/Bhutan" }] }
  ]
}
