{
  "id": "india",
  "festivals": [
    { "id": "holi", "name": "Holi", "dates": { "month": 3, "startDay": 24, "endDay": 25 }, "location": { "name": "Delhi", "coords": { "lat": 28.61, "lng": 77.2 } }, "description": "The Festival of Colours transforms India with exuberant powder fights, bonfires, and street celebrations.", "importance": "primary", "externalLinks": [{ "label": "Wikipedia", "url": "https://en.wikipedia.org/wiki/Holi" }] },
    { "id": "diwali", "name": "Diwali", "dates": { "month": 10, "startDay": 20, "endDay": 24 }, "location": { "name": "Delhi", "coords": { "lat": 28.61, "lng": 77.2 } }, "description": "The Festival of Lights illuminates all of India with oil lamps, fireworks, and the triumph of light over darkness.", "importance": "primary", "externalLinks": [{ "label": "Wikipedia", "url": "https://en.wikipedia.org/wiki/Diwali" }] },
    { "id": "pushkar-camel-fair", "name": "Pushkar Camel Fair", "dates": { "month": 11, "startDay": 20, "endDay": 28 }, "location": { "name": "Pushkar", "coords": { "lat": 26.49, "lng": 74.55 } }, "description": "The world's largest camel fair draws 50,000 camels and half a million visitors to this sacred desert town.", "importance": "primary", "externalLinks": [{ "label": "Wikipedia", "url": "https://en.wikipedia.org/wiki/Pushkar_fair" }] }
  ],
  "destinations": [
    { "id": "delhi", "name": "Delhi", "region": "Delhi", "coords": { "lat": 28.61, "lng": 77.2 }, "tags": ["capital", "mughal", "food", "history"], "description": "India's historic capital layers Mughal grandeur — Red Fort, Humayun's Tomb — over a buzzing modern megacity.", "travelTimeFromEntry": 0, "priority": 1, "bestMonths": [10, 11, 12, 1, 2, 3], "externalLinks": [{ "label": "Wikipedia", "url": "https://en.wikipedia.org/wiki/Delhi" }] },
    { "id": "agra", "name": "Agra (Taj Mahal)", "region": "Uttar Pradesh", "coords": { "lat": 27.17, "lng": 78.02 }, "tags": ["UNESCO", "Taj-Mahal", "Mughal", "wonder"], "description": "The Taj Mahal, built by Emperor Shah Jahan as a monument to love, is one of the world's most recognised buildings.", "travelTimeFromEntry": 4, "priority": 1, "bestMonths": [10, 11, 12, 1, 2], "externalLinks": [{ "label": "Wikipedia", "url": "https://en.wikipedia.org/wiki/Agra" }] },
    { "id": "jaipur", "name": "Jaipur", "region": "Rajasthan", "coords": { "lat": 26.92, "lng": 75.83 }, "tags": ["pink-city", "forts", "palaces", "Rajasthan"], "description": "The Pink City of Rajasthan dazzles with the Amber Fort, Hawa Mahal, and a centuries-old bazaar.", "travelTimeFromEntry": 5, "priority": 1, "bestMonths": [10, 11, 12, 1, 2, 3], "externalLinks": [{ "label": "Wikipedia", "url": "https://en.wikipedia.org/wiki/Jaipur" }] },
    { "id": "varanasi", "name": "Varanasi", "region": "Uttar Pradesh", "coords": { "lat": 25.32, "lng": 83.0 }, "tags": ["sacred", "ghats", "Ganges", "oldest-city"], "description": "Hinduism's holiest city on the Ganges has been a centre of spirituality for 3,000 years, famous for its burning ghats.", "travelTimeFromEntry": 6, "priority": 1, "bestMonths": [10, 11, 12, 1, 2, 3], "externalLinks": [{ "label": "Wikipedia", "url": "https://en.wikipedia.org/wiki/Varanasi" }] },
    { "id": "rishikesh", "name": "Rishikesh", "region": "Uttarakhand", "coords": { "lat": 30.09, "lng": 78.27 }, "tags": ["yoga", "adventure", "Ganges", "ashrams"], "description": "The yoga capital of the world perches on the Ganges foothills where the Beatles once meditated with the Maharishi.", "travelTimeFromEntry": 5, "priority": 2, "bestMonths": [9, 10, 11, 2, 3, 4], "externalLinks": [{ "label": "Wikipedia", "url": "https://en.wikipedia.org/wiki/Rishikesh" }] },
    { "id": "pushkar", "name": "Pushkar", "region": "Rajasthan", "coords": { "lat": 26.49, "lng": 74.55 }, "tags": ["sacred-lake", "Brahma-temple", "camels", "desert"], "description": "One of India's five sacred dhams, this tiny lakeside desert town hosts the world's largest camel fair each November.", "travelTimeFromEntry": 6, "priority": 2, "bestMonths": [10, 11, 12, 1, 2], "externalLinks": [{ "label": "Wikipedia", "url": "https://en.wikipedia.org/wiki/Pushkar" }] },
    { "id": "jodhpur", "name": "Jodhpur", "region": "Rajasthan", "coords": { "lat": 26.29, "lng": 73.02 }, "tags": ["blue-city", "Mehrangarh", "Rajasthan", "forts"], "description": "The Blue City is dominated by the mighty Mehrangarh Fort, one of India's largest, looking down over indigo-painted houses.", "travelTimeFromEntry": 7, "priority": 2, "bestMonths": [10, 11, 12, 1, 2], "externalLinks": [{ "label": "Wikipedia", "url": "https://en.wikipedia.org/wiki/Jodhpur" }] },
    { "id": "udaipur", "name": "Udaipur", "region": "Rajasthan", "coords": { "lat": 24.57, "lng": 73.69 }, "tags": ["lake-city", "palaces", "romance", "Rajasthan"], "description": "The City of Lakes dazzles with marble palaces shimmering on Lake Pichola, often called Venice of the East.", "travelTimeFromEntry": 7, "priority": 2, "bestMonths": [10, 11, 12, 1, 2], "externalLinks": [{ "label": "Wikipedia", "url": "https://en.wikipedia.org/wiki/Udaipur" }] }
  ]
}
